Language,Pop-Up Info,Dog/Cat,No. of Animals,Sex,Pregnant?,Age,Temperament,Location (Area),Location Link,Location Details,Contact Name,Contact Phone #,Photo,Status,Latitude,Longitude
English,Spay/Neuter,Dog,2,Both,No,Adult,Friendly,Thong Sala Market,https://maps.app.goo.gl/4evG154Z9U5miZ9S6,Near the main market entrance,Alaska,0622355014,,Pending,9.7282,99.9941
English,Spay/Neuter,Dog,1,Female,Yes,Adult,Wild,Chaloklum Beach,https://maps.app.goo.gl/Yaomoesr3cYoiWmn8,Living under the pier,Alaska,0622355014,,Pending,9.7869,100.0052
English,Spay/Neuter,Cat,3,Mixed,No,Kitten,Friendly,Haad Rin Beach,https://goo.gl/maps/abc123,Behind the beach restaurants,Sarah,0812345678,,Pending,9.6664,100.0735
English,Spay/Neuter,Dog,1,Male,No,Adult,Friendly,Madewan Village,https://maps.app.goo.gl/z4wbCF394Gwdqv5J8,At vacant lot by old restaurant,Alaska,0622355014,,Completed,9.7262,99.9984
English,Spay/Neuter,Dog,1,Female,Yes,Teenager (6mnth - 1yr),Wild,Bottle Beach,https://goo.gl/maps/def456,Near the hiking trail entrance,John,0887654321,,Pending,9.7947,100.0158
English,Spay/Neuter,Cat,1,Male,No,Adult,Friendly,Ban Tai,https://goo.gl/maps/ghi789,At local temple area,Maria,0845123456,,Pending,9.7108,99.9876